title,description,property_type,status,price,bedrooms,bathrooms,area_sqft,address,latitude,longitude,country,state,city,amenities,prop_latitude,prop_longitude
King's Castle Beach House,Stunning luxury beach house with a huge private pool spa and 6-seater golf cart.,villa,available,450.00,6,4,3200,123 Beach Rd,30.3935,-86.4958,USA,Florida,Destin,рџЏЉ Pool|рџЊЉ Beach Access|рџ…їпёЏ Parking|рџ“¶ WiFi|рџЌі Kitchen|вќ„пёЏ AC|рџЏЊпёЏ Golf Cart|рџ›Ѓ Hot Tub,30.4012,-86.4721
Sunset Condo Downtown,Modern condo with breathtaking city views right in the heart of downtown.,condo,available,180.00,2,2,980,456 Main St,30.3935,-86.4958,USA,Florida,Destin,рџ“¶ WiFi|вќ„пёЏ AC|рџЌі Kitchen|рџ…їпёЏ Parking|рџЏ‹пёЏ Gym,30.3891,-86.5034
Mountain Cabin Retreat,Cozy rustic cabin surrounded by lush forest with stunning mountain views.,cabin,available,220.00,3,2,1500,789 Forest Ln,35.5175,-83.1927,USA,Tennessee,Gatlinburg,рџ”Ґ Fireplace|рџ›Ѓ Hot Tub|рџ“¶ WiFi|рџЌі Kitchen|рџЊІ Hiking Trails,35.5301,-83.1745
Beachfront Paradise Villa,Breathtaking beachfront villa with direct ocean access private pool and stunning sunset views.,villa,available,850.00,5,4,4500,321 Ocean Dr,25.7617,-80.1918,USA,Florida,Miami,рџЏЉ Pool|рџЊЉ Beach Access|рџ…їпёЏ Parking|рџ“¶ WiFi|рџЌі Kitchen|вќ„пёЏ AC|рџ›Ѓ Hot Tub|рџЋ® Game Room,25.7489,-80.1342
Downtown Luxury Apartment,Sleek modern apartment in the heart of the city with floor-to-ceiling windows.,apartment,available,275.00,2,2,1100,567 City Ave,41.8781,-87.6298,USA,Illinois,Chicago,рџЏЉ Rooftop Pool|рџ“¶ WiFi|вќ„пёЏ AC|рџЌі Kitchen|рџЏ‹пёЏ Gym|рџ…їпёЏ Parking,41.8827,-87.6233
Lakeside Family Cottage,Charming cottage right on the lake with private dock canoe and kayak.,cabin,available,195.00,4,3,1800,890 Lake Rd,44.4280,-110.5885,USA,Wyoming,Yellowstone,рџљЈ Kayak|рџЋЈ Fishing|рџ“¶ WiFi|рџЌі Kitchen|рџ”Ґ Fireplace|рџ…їпёЏ Parking,44.4412,-110.5623
Desert Adobe Hideaway,Unique adobe-style home in the desert with stunning red rock views.,house,available,320.00,3,2,2100,432 Canyon Rd,36.1069,-112.1129,USA,Arizona,Grand Canyon,рџ›Ѓ Hot Tub|в­ђ Stargazing Deck|рџ“¶ WiFi|рџЌі Kitchen|вќ„пёЏ AC|рџ…їпёЏ Parking,36.0892,-112.0934
NYC Studio Loft,Stylish studio loft in the heart of Manhattan close to Times Square.,apartment,available,350.00,1,1,650,789 Broadway,40.7580,-73.9855,USA,New York,New York,рџ“¶ WiFi|вќ„пёЏ AC|рџЌі Kitchen|рџЏ‹пёЏ Gym|рџљ‡ Metro Access,40.7614,-73.9776