title,description,property_type,status,price,bedrooms,bathrooms,area_sqft,address,latitude,longitude,country,state,city
King's Castle Beach House,Stunning luxury beach house with a huge private pool spa and 6-seater golf cart. Perfect for large families and groups looking for the ultimate beach vacation experience.,villa,available,450.00,6,4,3200,123 Beach Rd,30.3935,-86.4958,USA,Florida,Destin
Sunset Condo Downtown,Modern condo with breathtaking city views right in the heart of downtown. Walking distance to restaurants shops and entertainment.,condo,available,180.00,2,2,980,456 Main St,30.3960,-86.4900,USA,Florida,Destin
Mountain Cabin Retreat,Cozy rustic cabin surrounded by lush forest with stunning mountain views. Perfect for a peaceful getaway with hiking trails nearby.,cabin,available,220.00,3,2,1500,789 Forest Ln,35.5175,-83.1927,USA,Tennessee,Gatlinburg
Beachfront Paradise Villa,Breathtaking beachfront villa with direct ocean access private pool and stunning sunset views. Luxurious interiors and top-of-the-line amenities.,villa,available,850.00,5,4,4500,321 Ocean Dr,25.7617,-80.1918,USA,Florida,Miami
Downtown Luxury Apartment,Sleek modern apartment in the heart of the city with floor-to-ceiling windows stunning skyline views and access to rooftop pool.,apartment,available,275.00,2,2,1100,567 City Ave,41.8781,-87.6298,USA,Illinois,Chicago
Lakeside Family Cottage,Charming cottage right on the lake with private dock canoe and kayak. Perfect for family vacations with kids.,cabin,available,195.00,4,3,1800,890 Lake Rd,44.4280,-110.5885,USA,Wyoming,Yellowstone
Desert Adobe Hideaway,Unique adobe-style home in the desert with stunning red rock views private hot tub and stargazing deck.,house,available,320.00,3,2,2100,432 Canyon Rd,36.1069,-112.1129,USA,Arizona,Grand Canyon
NYC Studio Loft,Stylish studio loft in the heart of Manhattan close to Times Square Central Park and world-class dining.,apartment,available,350.00,1,1,650,789 Broadway,40.7580,-73.9855,USA,New York,New York